
  {
    "id": 1,
    "name": "Alphabeto Shopping Manauara",
    "address": "Avenida Mário Ypiranga, 1300 - Adrianópolis",
    "city": "Manaus",
    "state": "AM",
    "phone": "559294481001",
    "whatsapp": "559294481001",
    "lat": -3.1170,
    "lng": -60.0258,
    "hours": "Seg-Sáb: 10h-22h | Dom: 12h-21h",
    "rating": 4.5
  },
  {
    "id": 2,
    "name": "Alphabeto Salvador Shopping",
    "address": "Avenida Tancredo Neves, 3133 - Caminho das Árvores",
    "city": "Salvador",
    "state": "BA",
    "phone": "5571996803770",
    "whatsapp": "5571996803770",
    "lat": -12.9777,
    "lng": -38.5016,
    "hours": "Seg-Sáb: 9h-22h | Dom: 13h-21h",
    "rating": 4.5
  },
  {
    "id": 3,
    "name": "Alphabeto Shopping Barra",
    "address": "Avenida Centenário, 2992 - Chame-Chame",
    "city": "Salvador",
    "state": "BA",
    "phone": "5571999963037",
    "whatsapp": "5571999963037",
    "lat": -12.9777,
    "lng": -38.5016,
    "hours": "Seg-Sáb: 9h-22h | Dom: 12h-20h",
    "rating": 4.5
  },
  {
    "id": 4,
    "name": "Alphabeto Shopping Campo Grande",
    "address": "Avenida Afonso Pena, 4909 - Cidade Jardim",
    "city": "Campo Grande",
    "state": "MS",
    "phone": "5567992312928",
    "whatsapp": "5567992312928",
    "lat": -20.4428,
    "lng": -54.6464,
    "hours": "Seg-Sáb: 10h-22h | Dom: 12h-20h",
    "rating": 4.5
  },
  {
    "id": 5,
    "name": "Alphabeto Shopping da Bahia",
    "address": "Avenida Tancredo Neves, 148 - Caminho das Árvores",
    "city": "Salvador",
    "state": "BA",
    "phone": "5571996636656",
    "whatsapp": "5571996636656",
    "lat": -12.9777,
    "lng": -38.5016,
    "hours": "Seg-Sáb: 9h-22h | Dom: 13h-21h",
    "rating": 4.5
  },
  {
    "id": 6,
    "name": "Alphabeto Morumbi Shopping",
    "address": "Avenida Roque Petroni Júnior, 1089 - Vila Gertrudes",
    "city": "São Paulo",
    "state": "SP",
    "phone": "5511930402110",
    "whatsapp": "5511930402110",
    "lat": -23.5505,
    "lng": -46.6333,
    "hours": "Seg-Sáb: 10h-22h | Dom: 14h-20h",
    "rating": 4.5
  },
  {
    "id": 7,
    "name": "Alphabeto Shopping Partage",
    "address": "Avenida Presidente Kennedy, 425 - Centro",
    "city": "São Gonçalo",
    "state": "RJ",
    "phone": "5521979216267",
    "whatsapp": "5521979216267",
    "lat": -22.8271,
    "lng": -43.0544,
    "hours": "Seg-Sáb: 10h-22h | Dom: 13h-21h",
    "rating": 4.5
  },
  {
    "id": 8,
    "name": "Alphabeto Shopping Sulacap",
    "address": "Avenida Marechal Fontenele, 3545 - Jardim Sulacap",
    "city": "Rio de Janeiro",
    "state": "RJ",
    "phone": "5521981210062",
    "whatsapp": "5521981210062",
    "lat": -22.9068,
    "lng": -43.1729,
    "hours": "Seg-Sáb: 10h-22h | Dom: 15h-21h",
    "rating": 4.5
  },
  {
    "id": 9,
    "name": "Alphabeto Shopping Recreio",
    "address": "Avenida das Américas, 19019 - Recreio dos Bandeirantes",
    "city": "Rio de Janeiro",
    "state": "RJ",
    "phone": "5521983378151",
    "whatsapp": "5521983378151",
    "lat": -22.9068,
    "lng": -43.1729,
    "hours": "Seg-Sáb: 10h-22h | Dom: 15h-21h",
    "rating": 4.5
  },
  {
    "id": 10,
    "name": "Alphabeto Shopping Passeio",
    "address": "Rua Viúva Dantas, 100 - Campo Grande",
    "city": "Rio de Janeiro",
    "state": "RJ",
    "phone": "5521992024374",
    "whatsapp": "5521992024374",
    "lat": -22.9068,
    "lng": -43.1729,
    "hours": "Seg-Sáb: 10h-22h | Dom: 15h-21h",
    "rating": 4.5
  },
  {
    "id": 11,
    "name": "Alphabeto Shopping Ilha Plaza",
    "address": "Avenida Maestro Paulo e Silva, 400 - Jardim Carioca",
    "city": "Rio de Janeiro",
    "state": "RJ",
    "phone": "5521991033137",
    "whatsapp": "5521991033137",
    "lat": -22.9068,
    "lng": -43.1729,
    "hours": "Seg-Sáb: 10h-22h | Dom: 15h-21h",
    "rating": 4.5
  },
  {
    "id": 12,
    "name": "Alphabeto Shopping Carioca",
    "address": "Avenida Vicente de Carvalho, 909 - Vila da Penha",
    "city": "Rio de Janeiro",
    "state": "RJ",
    "phone": "5521986637744",
    "whatsapp": "5521986637744",
    "lat": -22.9068,
    "lng": -43.1729,
    "hours": "Seg-Sáb: 10h-22h | Dom: 15h-21h",
    "rating": 4.5
  },
  {
    "id": 13,
    "name": "Alphabeto Bangu Shopping",
    "address": "Rua Fonseca, 240 - Bangu",
    "city": "Rio de Janeiro",
    "state": "RJ",
    "phone": "5521981320362",
    "whatsapp": "5521981320362",
    "lat": -22.9068,
    "lng": -43.1729,
    "hours": "Seg-Sáb: 10h-22h | Dom: 15h-21h",
    "rating": 4.5
  },
  {
    "id": 14,
    "name": "Alphabeto Shopping Américas",
    "address": "Avenida das Américas, 15500 - Recreio dos Bandeirantes",
    "city": "Rio de Janeiro",
    "state": "RJ",
    "phone": "5521964177671",
    "whatsapp": "5521964177671",
    "lat": -22.9068,
    "lng": -43.1729,
    "hours": "Seg-Sáb: 10h-22h | Dom: 15h-21h",
    "rating": 4.5
  },
  {
    "id": 15,
    "name": "Alphabeto Shopping 45",
    "address": "Praça Saenz Peña, 45 - Tijuca",
    "city": "Rio de Janeiro",
    "state": "RJ",
    "phone": "5521979961894",
    "whatsapp": "5521979961894",
    "lat": -22.9068,
    "lng": -43.1729,
    "hours": "Seg-Sáb: 9h-19h | Dom: 15h-21h",
    "rating": 4.5
  },
  {
    "id": 16,
    "name": "Alphabeto Shopping Park campo Grande",
    "address": "Estrada do Monteiro, 1200 - Campo Grande",
    "city": "Rio de Janeiro",
    "state": "RJ",
    "phone": "5521981469054",
    "whatsapp": "5521981469054",
    "lat": -22.9068,
    "lng": -43.1729,
    "hours": "Seg-Sáb: 10h-22h | Dom: 15h-21h",
    "rating": 4.5
  },
  {
    "id": 17,
    "name": "Alphabeto Shopping Gávea",
    "address": "Rua Marquês de São Vicente, 52 - Gávea",
    "city": "Rio de Janeiro",
    "state": "RJ",
    "phone": "5521999650465",
    "whatsapp": "5521999650465",
    "lat": -22.9068,
    "lng": -43.1729,
    "hours": "Seg-Sáb: 10h-22h | Dom: 15h-21h",
    "rating": 4.5
  },
  {
    "id": 18,
    "name": "Alphabeto Icaraí",
    "address": "Rua Ator Paulo Gustavo, 229 - Icaraí",
    "city": "Niterói",
    "state": "RJ",
    "phone": "5521972447361",
    "whatsapp": "5521972447361",
    "lat": -22.8828,
    "lng": -43.1039,
    "hours": "Seg-Sáb: 9h-18h | Dom: 15h-21h",
    "rating": 4.5
  },
  {
    "id": 19,
    "name": "Alphabeto Centro Macaé",
    "address": "Avenida Rui Barbosa, 674 - Centro",
    "city": "Macaé",
    "state": "RJ",
    "phone": "5522992037540",
    "whatsapp": "5522992037540",
    "lat": -22.3717,
    "lng": -41.7857,
    "hours": "Seg-Sáb: 9h-19h | Dom: 15h-21h",
    "rating": 4.5
  },
  {
    "id": 20,
    "name": "Alphabeto Shopping Pelinca",
    "address": "Avenida Pelinca, 100 - Parque Tamandaré",
    "city": "Campos dos Goytacazes",
    "state": "RJ",
    "phone": "5522997962418",
    "whatsapp": "5522997962418",
    "lat": -21.7539,
    "lng": -41.3239,
    "hours": "Seg-Sáb: 9h-21h | Dom: 15h-21h",
    "rating": 4.5
  },
  {
    "id": 21,
    "name": "Alphabeto Shopping Jardim Guadalupe",
    "address": "Avenida Brasil, 22155 - Guadalupe",
    "city": "Rio de Janeiro",
    "state": "RJ",
    "phone": "5521985859625",
    "whatsapp": "5521985859625",
    "lat": -22.9068,
    "lng": -43.1729,
    "hours": "Seg-Sáb: 10h-22h | Dom: 13h-21h",
    "rating": 4.5
  },
  {
    "id": 22,
    "name": "Alphabeto Shopping Plaza Niterói",
    "address": "Rua Quinze de Novembro, 8 - Centro",
    "city": "Niterói",
    "state": "RJ",
    "phone": "5521997487090",
    "whatsapp": "5521997487090",
    "lat": -22.8828,
    "lng": -43.1039,
    "hours": "Seg-Sáb: 10h-22h | Dom: 13h-21h",
    "rating": 4.5
  },
  {
    "id": 23,
    "name": "Alphabeto Shopping Tijuca",
    "address": "Avenida Maracanã, 987 - Tijuca",
    "city": "Rio de Janeiro",
    "state": "RJ",
    "phone": "5521967809973",
    "whatsapp": "5521967809973",
    "lat": -22.9068,
    "lng": -43.1729,
    "hours": "Seg-Sáb: 10h-22h | Dom: 13h-21h",
    "rating": 4.5
  },
  {
    "id": 24,
    "name": "Alphabeto Shopping Rio Sul",
    "address": "Avenida Lauro Sodré, 445 - Botafogo",
    "city": "Rio de Janeiro",
    "state": "RJ",
    "phone": "5521971247415",
    "whatsapp": "5521971247415",
    "lat": -22.9068,
    "lng": -43.1729,
    "hours": "Seg-Sáb: 10h-22h | Dom: 15h-21h",
    "rating": 4.5
  },
  {
    "id": 25,
    "name": "Alphabeto Shopping Nova América",
    "address": "Avenida Pastor Martin Luther King Júnior, S/N - Del Castilho",
    "city": "Rio de Janeiro",
    "state": "RJ",
    "phone": "5521981077679",
    "whatsapp": "5521981077679",
    "lat": -22.9068,
    "lng": -43.1729,
    "hours": "Seg-Sáb: 10h-22h | Dom: 13h-21h",
    "rating": 4.5
  },
  {
    "id": 26,
    "name": "Alphabeto Shopping River",
    "address": "Avenida Monsenhor Ângelo Sampaio, 100 - Centro",
    "city": "Petrolina",
    "state": "PE",
    "phone": "558788436788",
    "whatsapp": "558788436788",
    "lat": -8.7619,
    "lng": -63.9039,  
    "hours": "Seg-Sáb: 10h-22h | Dom: 14h-20h",
    "rating": 4.5
  },

[
  {
    "id": 1,
    "name": "Alphabeto Shopping Manauara",
    "address": "Avenida Mário Ypiranga, 1300 - Adrianópolis",
    "city": "Manaus",
    "state": "AM",
    "phone": "559294481001",
    "whatsapp": "559294481001",
    "lat": -3.1170,
    "lng": -60.0258,
    "hours": "Seg-Sáb: 10h-22h | Dom: 12h-21h",
    "rating": 4.5
  },
  {
    "id": 2,
    "name": "Alphabeto Salvador Shopping",
    "address": "Avenida Tancredo Neves, 3133 - Caminho das Árvores",
    "city": "Salvador",
    "state": "BA",
    "phone": "5571996803770",
    "whatsapp": "5571996803770",
    "lat": -12.9777,
    "lng": -38.5016,
    "hours": "Seg-Sáb: 9h-22h | Dom: 13h-21h",
    "rating": 4.5
  },
  {
    "id": 3,
    "name": "Alphabeto Shopping Barra",
    "address": "Avenida Centenário, 2992 - Chame-Chame",
    "city": "Salvador",
    "state": "BA",
    "phone": "5571999963037",
    "whatsapp": "5571999963037",
    "lat": -12.9777,
    "lng": -38.5016,
    "hours": "Seg-Sáb: 9h-22h | Dom: 12h-20h",
    "rating": 4.5
  },
  {
    "id": 4,
    "name": "Alphabeto Shopping Campo Grande",
    "address": "Avenida Afonso Pena, 4909 - Cidade Jardim",
    "city": "Campo Grande",
    "state": "MS",
    "phone": "5567992312928",
    "whatsapp": "5567992312928",
    "lat": -20.4428,
    "lng": -54.6464,
    "hours": "Seg-Sáb: 10h-22h | Dom: 12h-20h",
    "rating": 4.5
  },
  {
    "id": 5,
    "name": "Alphabeto Shopping da Bahia",
    "address": "Avenida Tancredo Neves, 148 - Caminho das Árvores",
    "city": "Salvador",
    "state": "BA",
    "phone": "5571996636656",
    "whatsapp": "5571996636656",
    "lat": -12.9777,
    "lng": -38.5016,
    "hours": "Seg-Sáb: 9h-22h | Dom: 13h-21h",
    "rating": 4.5
  },
  {
    "id": 6,
    "name": "Alphabeto Morumbi Shopping",
    "address": "Avenida Roque Petroni Júnior, 1089 - Vila Gertrudes",
    "city": "São Paulo",
    "state": "SP",
    "phone": "5511930402110",
    "whatsapp": "5511930402110",
    "lat": -23.5505,
    "lng": -46.6333,
    "hours": "Seg-Sáb: 10h-22h | Dom: 14h-20h",
    "rating": 4.5
  },
  {
    "id": 7,
    "name": "Alphabeto Shopping Partage",
    "address": "Avenida Presidente Kennedy, 425 - Centro",
    "city": "São Gonçalo",
    "state": "RJ",
    "phone": "5521979216267",
    "whatsapp": "5521979216267",
    "lat": -22.8271,
    "lng": -43.0544,
    "hours": "Seg-Sáb: 10h-22h | Dom: 13h-21h",
    "rating": 4.5
  },
  {
    "id": 8,
    "name": "Alphabeto Shopping Sulacap",
    "address": "Avenida Marechal Fontenele, 3545 - Jardim Sulacap",
    "city": "Rio de Janeiro",
    "state": "RJ",
    "phone": "5521981210062",
    "whatsapp": "5521981210062",
    "lat": -22.9068,
    "lng": -43.1729,
    "hours": "Seg-Sáb: 10h-22h | Dom: 15h-21h",
    "rating": 4.5
  },
  {
    "id": 9,
    "name": "Alphabeto Shopping Recreio",
    "address": "Avenida das Américas, 19019 - Recreio dos Bandeirantes",
    "city": "Rio de Janeiro",
    "state": "RJ",
    "phone": "5521983378151",
    "whatsapp": "5521983378151",
    "lat": -22.9068,
    "lng": -43.1729,
    "hours": "Seg-Sáb: 10h-22h | Dom: 15h-21h",
    "rating": 4.5
  },
  {
    "id": 10,
    "name": "Alphabeto Shopping Passeio",
    "address": "Rua Viúva Dantas, 100 - Campo Grande",
    "city": "Rio de Janeiro",
    "state": "RJ",
    "phone": "5521992024374",
    "whatsapp": "5521992024374",
    "lat": -22.9068,
    "lng": -43.1729,
    "hours": "Seg-Sáb: 10h-22h | Dom: 15h-21h",
    "rating": 4.5
  },
  {
    "id": 11,
    "name": "Alphabeto Shopping Ilha Plaza",
    "address": "Avenida Maestro Paulo e Silva, 400 - Jardim Carioca",
    "city": "Rio de Janeiro",
    "state": "RJ",
    "phone": "5521991033137",
    "whatsapp": "5521991033137",
    "lat": -22.9068,
    "lng": -43.1729,
    "hours": "Seg-Sáb: 10h-22h | Dom: 15h-21h",
    "rating": 4.5
  },
  {
    "id": 12,
    "name": "Alphabeto Shopping Carioca",
    "address": "Avenida Vicente de Carvalho, 909 - Vila da Penha",
    "city": "Rio de Janeiro",
    "state": "RJ",
    "phone": "5521986637744",
    "whatsapp": "5521986637744",
    "lat": -22.9068,
    "lng": -43.1729,
    "hours": "Seg-Sáb: 10h-22h | Dom: 15h-21h",
    "rating": 4.5
  },
  {
    "id": 13,
    "name": "Alphabeto Bangu Shopping",
    "address": "Rua Fonseca, 240 - Bangu",
    "city": "Rio de Janeiro",
    "state": "RJ",
    "phone": "5521981320362",
    "whatsapp": "5521981320362",
    "lat": -22.9068,
    "lng": -43.1729,
    "hours": "Seg-Sáb: 10h-22h | Dom: 15h-21h",
    "rating": 4.5
  },
  {
    "id": 14,
    "name": "Alphabeto Shopping Américas",
    "address": "Avenida das Américas, 15500 - Recreio dos Bandeirantes",
    "city": "Rio de Janeiro",
    "state": "RJ",
    "phone": "5521964177671",
    "whatsapp": "5521964177671",
    "lat": -22.9068,
    "lng": -43.1729,
    "hours": "Seg-Sáb: 10h-22h | Dom: 15h-21h",
    "rating": 4.5
  },
  {
    "id": 15,
    "name": "Alphabeto Shopping 45",
    "address": "Praça Saenz Peña, 45 - Tijuca",
    "city": "Rio de Janeiro",
    "state": "RJ",
    "phone": "5521979961894",
    "whatsapp": "5521979961894",
    "lat": -22.9068,
    "lng": -43.1729,
    "hours": "Seg-Sáb: 9h-19h | Dom: 15h-21h",
    "rating": 4.5
  },
  {
    "id": 16,
    "name": "Alphabeto Shopping Park Campo Grande",
    "address": "Estrada do Monteiro, 1200 - Campo Grande",
    "city": "Rio de Janeiro",
    "state": "RJ",
    "phone": "5521981469054",
    "whatsapp": "5521981469054",
    "lat": -22.9068,
    "lng": -43.1729,
    "hours": "Seg-Sáb: 10h-22h | Dom: 15h-21h",
    "rating": 4.5
  },
  {
    "id": 17,
    "name": "Alphabeto Shopping Gávea",
    "address": "Rua Marquês de São Vicente, 52 - Gávea",
    "city": "Rio de Janeiro",
    "state": "RJ",
    "phone": "5521999650465",
    "whatsapp": "5521999650465",
    "lat": -22.9068,
    "lng": -43.1729,
    "hours": "Seg-Sáb: 10h-22h | Dom: 15h-21h",
    "rating": 4.5
  },
  {
    "id": 18,
    "name": "Alphabeto Icaraí",
    "address": "Rua Ator Paulo Gustavo, 229 - Icaraí",
    "city": "Niterói",
    "state": "RJ",
    "phone": "5521972447361",
    "whatsapp": "5521972447361",
    "lat": -22.8828,
    "lng": -43.1039,
    "hours": "Seg-Sáb: 9h-18h | Dom: 15h-21h",
    "rating": 4.5
  },
  {
    "id": 19,
    "name": "Alphabeto Centro Macaé",
    "address": "Avenida Rui Barbosa, 674 - Centro",
    "city": "Macaé",
    "state": "RJ",
    "phone": "5522992037540",
    "whatsapp": "5522992037540",
    "lat": -22.3717,
    "lng": -41.7857,
    "hours": "Seg-Sáb: 9h-19h | Dom: 15h-21h",
    "rating": 4.5
  },
  {
    "id": 20,
    "name": "Alphabeto Shopping Pelinca",
    "address": "Avenida Pelinca, 100 - Parque Tamandaré",
    "city": "Campos dos Goytacazes",
    "state": "RJ",
    "phone": "5522997962418",
    "whatsapp": "5522997962418",
    "lat": -21.7539,
    "lng": -41.3239,
    "hours": "Seg-Sáb: 9h-21h | Dom: 15h-21h",
    "rating": 4.5
  },
  {
    "id": 21,
    "name": "Alphabeto Shopping Jardim Guadalupe",
    "address": "Avenida Brasil, 22155 - Guadalupe",
    "city": "Rio de Janeiro",
    "state": "RJ",
    "phone": "5521985859625",
    "whatsapp": "5521985859625",
    "lat": -22.9068,
    "lng": -43.1729,
    "hours": "Seg-Sáb: 10h-22h | Dom: 13h-21h",
    "rating": 4.5
  },
  {
    "id": 22,
    "name": "Alphabeto Shopping Plaza Niterói",
    "address": "Rua Quinze de Novembro, 8 - Centro",
    "city": "Niterói",
    "state": "RJ",
    "phone": "5521997487090",
    "whatsapp": "5521997487090",
    "lat": -22.8828,
    "lng": -43.1039,
    "hours": "Seg-Sáb: 10h-22h | Dom: 13h-21h",
    "rating": 4.5
  },
  {
    "id": 23,
    "name": "Alphabeto Shopping Tijuca",
    "address": "Avenida Maracanã, 987 - Tijuca",
    "city": "Rio de Janeiro",
    "state": "RJ",
    "phone": "5521967809973",
    "whatsapp": "5521967809973",
    "lat": -22.9068,
    "lng": -43.1729,
    "hours": "Seg-Sáb: 10h-22h | Dom: 13h-21h",
    "rating": 4.5
  },
  {
    "id": 24,
    "name": "Alphabeto Shopping Rio Sul",
    "address": "Avenida Lauro Sodré, 445 - Botafogo",
    "city": "Rio de Janeiro",
    "state": "RJ",
    "phone": "5521971247415",
    "whatsapp": "5521971247415",
    "lat": -22.9068,
    "lng": -43.1729,
    "hours": "Seg-Sáb: 10h-22h | Dom: 15h-21h",
    "rating": 4.5
  },
  {
    "id": 25,
    "name": "Alphabeto Shopping Nova América",
    "address": "Avenida Pastor Martin Luther King Júnior, S/N - Del Castilho",
    "city": "Rio de Janeiro",
    "state": "RJ",
    "phone": "5521981077679",
    "whatsapp": "5521981077679",
    "lat": -22.9068,
    "lng": -43.1729,
    "hours": "Seg-Sáb: 10h-22h | Dom: 13h-21h",
    "rating": 4.5
  },
  {
    "id": 26,
    "name": "Alphabeto Shopping River",
    "address": "Avenida Monsenhor Ângelo Sampaio, 100 - Centro",
    "city": "Petrolina",
    "state": "PE",
    "phone": "558788436788",
    "whatsapp": "558788436788",
    "lat": -9.3897,
    "lng": -40.5027,
    "hours": "Seg-Sáb: 10h-22h | Dom: 14h-20h",
    "rating": 4.5
  },
  {
    "id": 27,
    "name": "Alphabeto Shopping Center Uberlândia",
    "address": "Avenida João Naves de Ávila, 133 - Tibery",
    "city": "Uberlândia",
    "state": "MG",
    "phone": "5534992116320",
    "whatsapp": "5534992116320",
    "lat": -18.9186,
    "lng": -48.2772,
    "hours": "Seg-Sáb: 10h-22h | Dom: 14h-20h",
    "rating": 4.5
  },
  {
    "id": 28,
    "name": "Alphabeto Shopping Uberada",
    "address": "Avenida Santa Beatriz da Silva, 1501 - São Benedito",
    "city": "Uberaba",
    "state": "MG",
    "phone": "5534998241030",
    "whatsapp": "5534998241030",
    "lat": -19.7477,
    "lng": -47.9389,
    "hours": "Seg-Sáb: 10h-22h | Dom: 14h-20h",
    "rating": 4.5
  },
  {
    "id": 29,
    "name": "Alphabeto Centro Juiz de Fora",
    "address": "Rua Barão de São João Nepomuceno, 409 - Centro",
    "city": "Juiz de Fora",
    "state": "MG",
    "phone": "5532984097290",
    "whatsapp": "5532984097290",
    "lat": -21.7622,
    "lng": -43.3434,
    "hours": "Seg-Sex: 10h-19h | Sáb: 10h-15h | Dom: Fechado",
    "rating": 4.5
  },
  {
    "id": 30,
    "name": "Alphabeto Shopping Independência",
    "address": "Avenida Presidente Itamar Franco, 3600 - São Mateus",
    "city": "Juiz de Fora",
    "state": "MG",
    "phone": "553299109256",
    "whatsapp": "553299109256",
    "lat": -21.7622,
    "lng": -43.3434,
    "hours": "Seg-Sáb: 10h-22h | Dom: 13h-21h",
    "rating": 4.5
  },
  {
    "id": 31,
    "name": "Alphabeto Barra Shopping",
    "address": "Avenida das Américas, 4666 - Barra da Tijuca",
    "city": "Rio de Janeiro",
    "state": "RJ",
    "phone": "5521996628735",
    "whatsapp": "5521996628735",
    "lat": -22.9068,
    "lng": -43.1729,
    "hours": "Seg-Sáb: 10h-22h | Dom: 13h-21h",
    "rating": 4.5
  },
  {
    "id": 32,
    "name": "Alphabeto Shopping Contagem",
    "address": "Avenida Severino Ballesteros Rodrigues, 850 - Ressaca",
    "city": "Contagem",
    "state": "MG",
    "phone": "5531988135580",
    "whatsapp": "5531988135580",
    "lat": -19.9319,
    "lng": -44.0539,
    "hours": "Seg-Sáb: 10h-22h | Dom: 14h-20h",
    "rating": 4.5
  },
  {
    "id": 33,
    "name": "Alphabeto Porto Velho",
    "address": "Avenida Prefeito Chiquilito Erse, 3288 - Agenor M. de Carvalho",
    "city": "Porto Velho",
    "state": "RO",
    "phone": "556999798769",
    "whatsapp": "556999798769",
    "lat": -8.7619,
    "lng": -63.9039,
    "hours": "Seg-Sáb: 10h-22h | Dom: 13h-21h",
    "rating": 4.5
  },
  {
    "id": 34,
    "name": "Alphabeto Shopping Via Barreiro",
    "address": "Avenida Afonso Vaz de Melo, 640 - Barreiro",
    "city": "Belo Horizonte",
    "state": "MG",
    "phone": "553132342805",
    "whatsapp": "553132342805",
    "lat": -19.9167,
    "lng": -43.9333,
    "hours": "Seg-Sáb: 10h-22h | Dom: 14h-20h",
    "rating": 4.5
  },
  {
    "id": 35,
    "name": "Alphabeto Shopping Paragem",
    "address": "Avenida Professor Mário Werneck, 1360 - Estoril",
    "city": "Belo Horizonte",
    "state": "MG",
    "phone": "5531971369325",
    "whatsapp": "5531971369325",
    "lat": -19.9167,
    "lng": -43.9333,
    "hours": "Seg-Sáb: 10h-22h | Dom: 14h-20h",
    "rating": 4.5
  },
  {
    "id": 36,
    "name": "Alphabeto Shopping Minas",
    "address": "Avenida Cristiano Machado, 4000 - União",
    "city": "Belo Horizonte",
    "state": "MG",
    "phone": "5531982839637",
    "whatsapp": "5531982839637",
    "lat": -19.9167,
    "lng": -43.9333,
    "hours": "Seg-Sáb: 10h-22h | Dom: 14h-20h",
    "rating": 4.5
  },
  {
    "id": 37,
    "name": "Alphabeto Aliança Shopping",
    "address": "Praça Doutor Augusto Glória, 327 - Centro",
    "city": "São João Nepomuceno",
    "state": "MG",
    "phone": "5532991295904",
    "whatsapp": "5532991295904",
    "lat": -21.5388,
    "lng": -43.0089,
    "hours": "Seg-Sáb: 9h-18h | Dom: 9h-14h",
    "rating": 4.5
  },
  {
    "id": 38,
    "name": "Alphabeto Shopping Vitória",
    "address": "Avenida Américo Buaiz, 200 - Enseada do Suá",
    "city": "Vitória",
    "state": "ES",
    "phone": "5527981318879",
    "whatsapp": "5527981318879",
    "lat": -20.2976,
    "lng": -40.2958,
    "hours": "Seg-Sáb: 10h-22h | Dom: 14h-20h",
    "rating": 4.5
  },
  {
    "id": 39,
    "name": "Alphabeto Praia do Canto",
    "address": "Rua Chapot Presvot, 249 - Praia do Canto",
    "city": "Vitória",
    "state": "ES",
    "phone": "5527981346858",
    "whatsapp": "5527981346858",
    "lat": -20.2976,
    "lng": -40.2958,
    "hours": "Seg-Sáb: 9h-19h",
    "rating": 4.5
  },
  {
    "id": 40,
    "name": "Alphabeto Shopping Vila Velha",
    "address": "Avenida Luciano das Neves, 2418 - Centro de Vila Velha",
    "city": "Vila Velha",
    "state": "ES",
    "phone": "5527998994781",
    "whatsapp": "5527998994781",
    "lat": -20.3305,
    "lng": -40.2922,
    "hours": "Seg-Sáb: 10h-22h | Dom: 14h-20h",
    "rating": 4.5
  },
  {
    "id": 41,
    "name": "Alphabeto Taguatinga Shopping",
    "address": "QS 1, 40 - Taguatinga",
    "city": "Brasília",
    "state": "DF",
    "phone": "556192165474",
    "whatsapp": "556192165474",
    "lat": -15.8333,
    "lng": -48.0500,
    "hours": "Seg-Sáb: 10h-22h | Dom: 14h-20h",
    "rating": 4.5
  },
  {
    "id": 42,
    "name": "Alphabeto Shopping Pátio Brasil",
    "address": "Setor Comercial Sul - Asa Sul",
    "city": "Brasília",
    "state": "DF",
    "phone": "5561992395778",
    "whatsapp": "5561992395778",
    "lat": -15.7939,
    "lng": -47.8828,
    "hours": "Seg-Sáb: 10h-22h | Dom: 14h-20h",
    "rating": 4.5
  },
  {
    "id": 43,
    "name": "Alphabeto Campos Shopping Boulevard",
    "address": "Rua Doutor Silvio Bastos Tavares, 330 - Parque Leopoldina",
    "city": "Campos dos Goytacazes",
    "state": "RJ",
    "phone": "5522997398351",
    "whatsapp": "5522997398351",
    "lat": -21.7539,
    "lng": -41.3239,
    "hours": "Seg-Sáb: 10h-22h | Dom: 15h-21h",
    "rating": 4.5
  },
  {
    "id": 44,
    "name": "Alphabeto Shopping Park Jacarepaguá",
    "address": "Estrada de Jacarepaguá, 6069 - Jacarepaguá",
    "city": "Rio de Janeiro",
    "state": "RJ",
    "phone": "5521983510023",
    "whatsapp": "5521983510023",
    "lat": -22.9068,
    "lng": -43.1729,
    "hours": "Seg-Sáb: 10h-22h | Dom: 15h-21h",
    "rating": 4.5
  },
  {
    "id": 45,
    "name": "Alphabeto Shopping Praia da Costa",
    "address": "Avenida Doutor Olivio Lira, 353 - Praia da Costa",
    "city": "Vila Velha",
    "state": "ES",
    "phone": "5527995003649",
    "whatsapp": "5527995003649",
    "lat": -20.3305,
    "lng": -40.2922,
    "hours": "Seg-Sáb: 10h-22h | Dom: 14h-20h",
    "rating": 4.5
  },
  {
    "id": 46,
    "name": "Alphabeto Shopping Ibirapuera",
    "address": "Avenida Ibirapuera, 3103 - Indianópolis",
    "city": "São Paulo",
    "state": "SP",
    "phone": "5511932888817",
    "whatsapp": "5511932888817",
    "lat": -23.5505,
    "lng": -46.6333,
    "hours": "Seg-Sáb: 10h-22h | Dom: 14h-22h",
    "rating": 4.5
  },
  {
    "id": 47,
    "name": "Alphabeto Boulevard Shopping Belém",
    "address": "Avenida Visconde de Souza Franco, 776 - Reduto",
    "city": "Belém",
    "state": "PA",
    "phone": "5591985001515",
    "whatsapp": "5591985001515",
    "lat": 0.0,
    "lng": 0.0,
    "hours": "Seg-Sáb: 10h-22h | Dom: 14h-22h",
    "rating": 4.5
  },
  {
    "id": 48,
    "name": "Alphabeto Montes Claros",
    "address": "Avenida Donato Quintino, 90 - Cidade Nova",
    "city": "Montes Claros",
    "state": "MG",
    "phone": "5538992410038",
    "whatsapp": "5538992410038",
    "lat": -16.7282,
    "lng": -43.8619,
    "hours": "Seg-Sáb: 10h-22h | Dom: 14h-20h",
    "rating": 4.5
  },
  {
    "id": 49,
    "name": "Alphabeto Shopping Park Lagos",
    "address": "Avenida Henrique Terra, 1700 - Palmeiras",
    "city": "Cabo Frio",
    "state": "RJ",
    "phone": "5522998572790",
    "whatsapp": "5522998572790",
    "lat": -22.8894,
    "lng": -42.0241,
    "hours": "Seg-Sáb: 10h-22h | Dom: 13h-21h",
    "rating": 4.5
  },
  {
    "id": 50,
    "name": "Alphabeto Shopping Rio Poty",
    "address": "Avenida Marechal Castelo Branco, 911 - Cabral",
    "city": "Teresina",
    "state": "PI",
    "phone": "5586981161015",
    "whatsapp": "5586981161015",
    "lat": -5.0892,
    "lng": -42.8019,
    "hours": "Seg-Sáb: 10h-22h | Dom: 15h-21h",
    "rating": 4.5
  },
  {
    "id": 51,
    "name": "Alphabeto Outlet Caxias",
    "address": "Rua Teresa Cristina, 2000 - Chácaras Rio-Petrópolis",
    "city": "Duque de Caxias",
    "state": "RJ",
    "phone": "5521971204814",
    "whatsapp": "5521971204814",
    "lat": -22.7858,
    "lng": -43.3045,
    "hours": "Seg-Sáb: 9h-21h | Dom: 9h-21h",
    "rating": 4.5
  },
  {
    "id": 52,
    "name": "Alphabeto São José dos Campos",
    "address": "Avenida Andrômeda, 227 - Jardim Satélite",
    "city": "São José dos Campos",
    "state": "SP",
    "phone": "5512974085088",
    "whatsapp": "5512974085088",
    "lat": -23.1895,
    "lng": -45.8841,
    "hours": "Seg-Sáb: 10h-22h | Dom: 13h-21h",
    "rating": 4.5
  },
  {
    "id": 53,
    "name": "Alphabeto Shopping Partage Betim",
    "address": "Rodovia Fernão Dias, KM 492 - Betim Industrial",
    "city": "Betim",
    "state": "MG",
    "phone": "5531989875277",
    "whatsapp": "5531989875277",
    "lat": -19.9678,
    "lng": -44.1983,
    "hours": "Seg-Dom: 10h-22h",
    "rating": 4.5
  },
  {
    "id": 54,
    "name": "Alphabeto Boulevard Rio",
    "address": "Rua Barão de São Francisco, 236 - Vila Isabel",
    "city": "Rio de Janeiro",
    "state": "RJ",
    "phone": "5521995547399",
    "whatsapp": "5521995547399",
    "lat": -22.9068,
    "lng": -43.1729,
    "hours": "Seg-Sáb: 10h-22h | Dom: 13h-21h",
    "rating": 4.5
  },
  {
    "id": 55,
    "name": "Alphabeto Grand Plaza",
    "address": "Avenida Industrial, 600 - Jardim",
    "city": "Santo André",
    "state": "SP",
    "phone": "5511997937700",
    "whatsapp": "5511997937700",
    "lat": -23.6639,
    "lng": -46.5383,
    "hours": "Seg-Sáb: 10h-22h | Dom: 14h-20h",
    "rating": 4.5
  },
  {
    "id": 56,
    "name": "Alphabeto Shopping da Ilha",
    "address": "Avenida Daniel de La Touche, 987 - Cohama",
    "city": "São Luís",
    "state": "MA",
    "phone": "5598970223487",
    "whatsapp": "5598970223487",
    "lat": -2.5387,
    "lng": -44.2825,
    "hours": "Seg-Sáb: 10h-22h | Dom: 13h-21h",
    "rating": 4.5
  },
  {
    "id": 57,
    "name": "Alphabeto Shopping Del Rey",
    "address": "Avenida Presidente Carlos Luz, 3001 - Pampulha",
    "city": "Belo Horizonte",
    "state": "MG",
    "phone": "5531988055580",
    "whatsapp": "5531988055580",
    "lat": -19.9167,
    "lng": -43.9333,
    "hours": "Seg-Sáb: 10h-22h | Dom: 14h-20h",
    "rating": 4.5
  },
  {
    "id": 58,
    "name": "Alphabeto Shopping Goiabeiras",
    "address": "Avenida Jose Monteiro de Figueiredo, 500 - Duque de Caxias",
    "city": "Cuiabá",
    "state": "MT",
    "phone": "5565996231215",
    "whatsapp": "5565996231215",
    "lat": -15.6019,
    "lng": -56.0979,
    "hours": "Seg-Sáb: 10h-22h | Dom: 14h-20h",
    "rating": 4.5
  },
  {
    "id": 59,
    "name": "Alphabeto Indaiatuba",
    "address": "Avenida Presidente Kennedy, 230 - Vila Areal",
    "city": "Indaiatuba",
    "state": "SP",
    "phone": "5519996312955",
    "whatsapp": "5519996312955",
    "lat": -23.0787,
    "lng": -47.2124,
    "hours": "Seg-Sex: 9h-19h | Sáb: 9h-15h | Dom: Fechado",
    "rating": 4.5
  }
